cities:
  Europe:
    - name: Amsterdam
      lat: 52.3676
      lon: 4.9041
    - name: Athens
      lat: 37.9838
      lon: 23.7275
    - name: Berlin
      lat: 52.5200
      lon: 13.4050
    - name: Brussels
      lat: 50.8503
      lon: 4.3517
    - name: Budapest
      lat: 47.4979
      lon: 19.0402
    - name: Copenhagen
      lat: 55.6761
      lon: 12.5683
    - name: Dublin
      lat: 53.3498
      lon: -6.2603
    - name: Helsinki
      lat: 60.1695
      lon: 24.9354
    - name: Lisbon
      lat: 38.7223
      lon: -9.1393
    - name: London
      lat: 51.5074
      lon: -0.1278
    - name: Madrid
      lat: 40.4168
      lon: -3.7038
    - name: Riga
      lat: 56.9496
      lon: 24.1052
    - name: Tallinn
      lat: 59.4370
      lon: 24.7535
    - name: Vilnius
      lat: 54.6872
      lon: 25.2797
    - name: Oslo
      lat: 59.9139
      lon: 10.7522
    - name: Paris
      lat: 48.8566
      lon: 2.3522
    - name: Prague
      lat: 50.0755
      lon: 14.4378
    - name: Rome
      lat: 41.9028
      lon: 12.4964
    - name: Stockholm
      lat: 59.3293
      lon: 18.0686
    - name: Vienna
      lat: 48.2082
      lon: 16.3738
    - name: Warsaw
      lat: 52.2297
      lon: 21.0122
    - name: Zurich
      lat: 47.3769
      lon: 8.5417
  Poland:
    - name: Białystok
      lat: 53.1325
      lon: 23.1688
    - name: Bydgoszcz
      lat: 53.1235
      lon: 18.0084
    - name: Gdańsk
      lat: 54.3520
      lon: 18.6466
    - name: Gorzów Wielkopolski
      lat: 52.7368
      lon: 15.2280
    - name: Katowice
      lat: 50.2649
      lon: 19.0238
    - name: Kielce
      lat: 50.8661
      lon: 20.6286
    - name: Kraków
      lat: 50.0647
      lon: 19.9450
    - name: Lublin
      lat: 51.2465
      lon: 22.5684
    - name: Łódź
      lat: 51.7592
      lon: 19.4559
    - name: Olsztyn
      lat: 53.7784
      lon: 20.4801
    - name: Opole
      lat: 50.6721
      lon: 17.9253
    - name: Poznań
      lat: 52.4064
      lon: 16.9252
    - name: Rzeszów
      lat: 50.0412
      lon: 21.9991
    - name: Szczecin
      lat: 53.4285
      lon: 14.5528
    - name: Toruń
      lat: 53.0138
      lon: 18.5984
    - name: Warszawa
      lat: 52.2297
      lon: 21.0122
    - name: Wrocław
      lat: 51.1079
      lon: 17.0385
    - name: Zielona Góra
      lat: 51.9356
      lon: 15.5064
  America:
    - name: New York
      lat: 40.7128
      lon: -74.0060
    - name: Los Angeles
      lat: 34.0522
      lon: -118.2437
    - name: Chicago
      lat: 41.8781
      lon: -87.6298
    - name: Houston
      lat: 29.7604
      lon: -95.3698
    - name: Phoenix
      lat: 33.4484
      lon: -112.0740
    - name: Philadelphia
      lat: 39.9526
      lon: -75.1652
    - name: San Antonio
      lat: 29.4241
      lon: -98.4936
    - name: San Diego
      lat: 32.7157
      lon: -117.1611
    - name: Dallas
      lat: 32.7767
      lon: -96.7970
    - name: San Jose
      lat: 37.3382
      lon: -121.8863
    - name: Austin
      lat: 30.2672
      lon: -97.7431
    - name: Jacksonville
      lat: 30.3322
      lon: -81.6557
    - name: San Francisco
      lat: 37.7749
      lon: -122.4194
    - name: Columbus
      lat: 39.9612
      lon: -82.9988
    - name: Indianapolis
      lat: 39.7684
      lon: -86.1581
    - name: Fort Worth
      lat: 32.7555
      lon: -97.3308
    - name: Charlotte
      lat: 35.2271
      lon: -80.8431
    - name: Seattle
      lat: 47.6062
      lon: -122.3321
    - name: Denver
      lat: 39.7392
      lon: -104.9903
    - name: Washington
      lat: 38.9072
      lon: -77.0369
    - name: Boston
      lat: 42.3601
      lon: -71.0589
    - name: Detroit
      lat: 42.3314
      lon: -83.0458
    - name: Memphis
      lat: 35.1495
      lon: -90.0490
    - name: Nashville
      lat: 36.1627
      lon: -86.7816
    - name: Portland
      lat: 45.5051
      lon: -122.6750
    - name: Oklahoma City
      lat: 35.4676
      lon: -97.5164
    - name: Las Vegas
      lat: 36.1699
      lon: -115.1398
    - name: Louisville
      lat: 38.2527
      lon: -85.7585
    - name: Baltimore
      lat: 39.2904
      lon: -76.6122
    - name: Milwaukee
      lat: 43.0389
      lon: -87.9065
    - name: Atlanta
      lat: 33.7490
      lon: -84.3880
      
      